{"content":[{"id":1,"name":"โรงเรียนวัดมกุฎกษัตริยาราม","lat":13.7653409550446,"lng":100.506977426834},{"id":2,"name":"โรงเรียนวัดตรีทศเทพ","lat":13.761486462279,"lng":100.503278889775},{"id":3,"name":"โรงเรียนวัดราชนัดดา","lat":13.7554528007125,"lng":100.503831461457},{"id":4,"name":"โรงเรียนวัดมหรรณพ์","lat":13.7541375519554,"lng":100.498946222684},{"id":5,"name":"โรงเรียนวัดสุทัศน์","lat":13.7489493992475,"lng":100.501319933031},{"id":6,"name":"โรงเรียนวัดมหาธาตุ","lat":13.7556597465203,"lng":100.491092024415},{"id":7,"name":"โรงเรียนวัดพระเชตุพน","lat":13.7462726004221,"lng":100.492578756445},{"id":8,"name":"โรงเรียนราชบพิธ","lat":13.74975905283,"lng":100.499625444762},{"id":9,"name":"โรงเรียนวัดราชบูรณะ","lat":13.742918003805,"lng":100.499514410254},{"id":10,"name":"โรงเรียนวัดอินทรวิหาร","lat":13.7668493463753,"lng":100.502281531388},{"id":11,"name":"โรงเรียนวัดใหม่อมตรส","lat":13.7650094690565,"lng":100.501463980421},{"id":12,"name":"โรงเรียนวัดประชาระบือธรรม","lat":13.7897009698616,"lng":100.525131506467},{"id":13,"name":"โรงเรียนวัดสวัสดิ์วารีสีมาราม","lat":13.7807770631629,"lng":100.515661786148},{"id":14,"name":"โรงเรียนวัดราชผาติการาม","lat":13.7805674178034,"lng":100.504585709865},{"id":15,"name":"โรงเรียนวัดเทวราชกุญชร","lat":13.7730088235765,"lng":100.50165670139},{"id":16,"name":"โรงเรียนวัดสัมณานัมบริหาร","lat":13.7598152452822,"lng":100.516311158548},{"id":17,"name":"โรงเรียนเบญจมบพิตร","lat":13.7663140310176,"lng":100.512723623099},{"id":18,"name":"โรงเรียนสุโขทัย","lat":13.7762732500377,"lng":100.522179325502},{"id":19,"name":"โรงเรียนวัดจันทร์สโมสร","lat":13.7910072859846,"lng":100.515294195498},{"id":20,"name":"โรงเรียนวัดธรรมาภิรตาราม","lat":13.7987730568608,"lng":100.533055266479},{"id":21,"name":"โรงเรียนวัดหนองจอก (ภักดีนรเศรษฐ)","lat":13.8571224858057,"lng":100.860309756253},{"id":22,"name":"โรงเรียนสุเหร่าหะยีมินา","lat":13.8552905023693,"lng":100.869409263209},{"id":23,"name":"โรงเรียนสุเหร่าบ้านเกาะ","lat":13.8743126656739,"lng":100.883394616246},{"id":24,"name":"โรงเรียนลำบุหรี่พวง","lat":13.8879888018451,"lng":100.849503495808},{"id":25,"name":"โรงเรียนหนองจอกพิทยานุสรณ์","lat":13.863494468135,"lng":100.854187552935},{"id":26,"name":"โรงเรียนสุเหร่าศาลาแดง","lat":13.8503158312765,"lng":100.897172341844},{"id":27,"name":"โรงเรียนสุเหร่าใหม่","lat":13.8534149870811,"lng":100.885370927364},{"id":28,"name":"โรงเรียนสามแยกท่าไข่","lat":13.8479115751238,"lng":100.890888877274},{"id":29,"name":"โรงเรียนหลวงแพ่ง (บำรุงรัฐกิจ)","lat":13.815778043083,"lng":100.93518546091},{"id":30,"name":"โรงเรียนนิลราษฎร์อุปถัมภ์","lat":13.8353620081461,"lng":100.910488106722},{"id":31,"name":"โรงเรียนบ้านเจียรดับ","lat":13.8551091926722,"lng":100.828589500962},{"id":32,"name":"โรงเรียนวัดทรัพย์สโมสร","lat":13.8506112028618,"lng":100.803768196759},{"id":33,"name":"โรงเรียนสุเหร่านาตับ","lat":13.8261831477302,"lng":100.816134569851},{"id":34,"name":"โรงเรียนสุเหร่าอีรั้ว","lat":13.8201797786,"lng":100.831838904146},{"id":35,"name":"โรงเรียนอิสลามลำไทร","lat":13.832252824749,"lng":100.841297901043},{"id":36,"name":"โรงเรียนบ้านลำต้นกล้วย","lat":13.8189159220962,"lng":100.850511559396},{"id":37,"name":"โรงเรียนวัดพระยาปลา","lat":13.9137236917769,"lng":100.863044746849},{"id":38,"name":"โรงเรียนวัดแสนเกษม","lat":13.9047048915777,"lng":100.889863520323},{"id":39,"name":"โรงเรียนวัดใหม่เจริญราษฎร์","lat":13.8873643514724,"lng":100.906070715954},{"id":40,"name":"โรงเรียนวัดสามง่าม","lat":13.889023538963,"lng":100.807528613826},{"id":41,"name":"โรงเรียนวัดสีชมพู","lat":13.929215605143,"lng":100.822296798447},{"id":42,"name":"โรงเรียนลำเจดีย์","lat":13.8779951645316,"lng":100.820036150758},{"id":43,"name":"โรงเรียนสุเหร่าคลองเก้า","lat":13.9047497157057,"lng":100.792765878529},{"id":44,"name":"โรงเรียนสุเหร่าคลองสิบ","lat":13.9041444276517,"lng":100.812104025862},{"id":45,"name":"โรงเรียนสุเหร่าคลองสิบเอ็ด","lat":13.9129426872469,"lng":100.838993587679},{"id":46,"name":"โรงเรียนสุเหร่าสนามกลางลำ","lat":13.8951308162991,"lng":100.828589936767},{"id":47,"name":"โรงเรียนวัดใหม่กระทุ่มล้ม","lat":13.779951307853,"lng":100.871127530922},{"id":48,"name":"โรงเรียนผลลีรุ่งเรือง","lat":13.7924815482739,"lng":100.911353365226},{"id":49,"name":"โรงเรียนวัดราษฎร์บำรุง","lat":13.8110720525403,"lng":100.878164240607},{"id":50,"name":"โรงเรียนคารีอุปถัมภ์","lat":13.7865772767882,"lng":100.858860855032},{"id":51,"name":"โรงเรียนสุเหร่าลำแขก","lat":13.8042011362832,"lng":100.859655685701},{"id":52,"name":"โรงเรียนศิริวังวิทยาคาร","lat":13.8036815425235,"lng":100.845899967593},{"id":53,"name":"โรงเรียนสังฆประชานุสรณ์","lat":13.7697509782434,"lng":100.836521407912},{"id":54,"name":"โรงเรียนวัดอู่ตะเภา","lat":13.7916787294445,"lng":100.812756930128},{"id":55,"name":"โรงเรียนวัดลำต้อยติ่ง","lat":13.755476332143,"lng":100.888658805785},{"id":56,"name":"โรงเรียนลำผักชี","lat":13.7916799824743,"lng":100.835529763373},{"id":57,"name":"โรงเรียนวัดหัวลำโพง","lat":13.7319110902806,"lng":100.528610632705},{"id":58,"name":"โรงเรียนวัดม่วงแค","lat":13.7262397583963,"lng":100.515141545151},{"id":59,"name":"โรงเรียนวัดมหาพฤฒาราม","lat":13.7321926492208,"lng":100.517089111822},{"id":60,"name":"โรงเรียนวัดสวนพลู","lat":13.7219913845874,"lng":100.51583370956},{"id":61,"name":"โรงเรียนวัดแก้วแจ่มฟ้า","lat":13.7317807288256,"lng":100.51949747409},{"id":62,"name":"โรงเรียนไทยนิยมสงเคราะห์","lat":13.8773569181704,"lng":100.598241484812},{"id":63,"name":"โรงเรียนบ้านคลองบัว","lat":13.8643385416774,"lng":100.640713311302},{"id":64,"name":"โรงเรียนบ้านบัวมล","lat":13.8808449137108,"lng":100.65574167721},{"id":65,"name":"โรงเรียนประชาภิบาล","lat":13.8730377394052,"lng":100.596977271329},{"id":66,"name":"โรงเรียนวัดไตรรัตนาราม","lat":13.8499630276049,"lng":100.618287221921},{"id":67,"name":"โรงเรียนไขศรีปราโมชอนุสรณ์","lat":13.76424290601,"lng":100.636515609168},{"id":68,"name":"โรงเรียนสุเหร่าคลองจั่น","lat":13.7644631799592,"lng":100.634704296908},{"id":69,"name":"โรงเรียนวัดเทพลีลา","lat":13.7583009513868,"lng":100.615504845341},{"id":70,"name":"โรงเรียนวัดศรีบุญเรือง","lat":13.7667863296256,"lng":100.652504504246},{"id":71,"name":"โรงเรียนลำสาลี (ราษฎร์บำรุง)","lat":13.749484572063,"lng":100.650484470693},{"id":72,"name":"โรงเรียนคลองกะจะ","lat":13.7489630903448,"lng":100.629098203269},{"id":73,"name":"โรงเรียนสุเหร่าวังใหญ่","lat":13.7492245395371,"lng":100.674180505848},{"id":74,"name":"โรงเรียนสุเหร่าหัวหมากน้อย","lat":13.7582924922492,"lng":100.65689280848},{"id":75,"name":"โรงเรียนบ้านบางกะปิ(ประถมศึกษา)","lat":13.7719660028031,"lng":100.646511640406},{"id":76,"name":"โรงเรียนวัดบึงทองหลาง","lat":13.7951072497871,"lng":100.625436208403},{"id":77,"name":"โรงเรียนบ้านบางกะปิ(มัธยมศึกษา)","lat":13.7717731171975,"lng":100.646910616933},{"id":78,"name":"โรงเรียนวัดบรมนิวาส","lat":13.751735141829,"lng":100.520203651424},{"id":79,"name":"โรงเรียนวัดชัยมงคล","lat":13.7480313005211,"lng":100.523398784252},{"id":80,"name":"โรงเรียนวัดปทุมวนาราม ในพระบรมราชูปถัมภ์สมเด็จพระเทพรัตนราชสุดาฯ สยามบรมราชกุมารี","lat":13.746602088953,"lng":100.536132374313},{"id":81,"name":"โรงเรียนวัดสระบัว","lat":13.747649748006,"lng":100.518470954674},{"id":82,"name":"โรงเรียนสวนลุมพินี","lat":13.7330632897032,"lng":100.545240747918},{"id":83,"name":"โรงเรียนปทุมวัน","lat":13.7361907259322,"lng":100.522660300496},{"id":84,"name":"โรงเรียนวัดดวงแข","lat":13.7420573939496,"lng":100.519477726044},{"id":85,"name":"โรงเรียนปลูกจิต","lat":13.7284960720041,"lng":100.54996537802},{"id":86,"name":"โรงเรียนวัดพระพิเรนทร์","lat":13.7475794433291,"lng":100.505618400405},{"id":87,"name":"โรงเรียนวัดสิตาราม","lat":13.7552064410896,"lng":100.510014473567},{"id":88,"name":"โรงเรียนวัดคณิกาผล","lat":13.7446369423806,"lng":100.509998588283},{"id":89,"name":"โรงเรียนวัดดิสานุการาม","lat":13.7489878358044,"lng":100.508098809783},{"id":90,"name":"โรงเรียนบางจาก","lat":13.6964441316098,"lng":100.595551622685},{"id":91,"name":"โรงเรียนวัดราษฎร์ศรัทธาธรรม","lat":13.7025125293504,"lng":100.62229290403},{"id":92,"name":"โรงเรียนพูนสิน","lat":13.6833316023611,"lng":100.603766905113},{"id":93,"name":"โรงเรียนวัดธรรมมงคล","lat":13.6888298858647,"lng":100.615315910578},{"id":94,"name":"โรงเรียนคลองสองต้นนุ่น","lat":13.7921694688898,"lng":100.735574159381},{"id":95,"name":"โรงเรียนคลองสาม","lat":13.7922216309677,"lng":100.751030648483},{"id":96,"name":"โรงเรียนวังเล็กวิทยานุสรณ์ (คลองสี่)","lat":13.8032873201286,"lng":100.77031212539},{"id":97,"name":"โรงเรียนบ้านเกาะ","lat":13.822518220435,"lng":100.781382147741},{"id":98,"name":"โรงเรียนบึงขวาง (มหาดไทยอุปถัมภ์)","lat":13.8030606370133,"lng":100.757371662324},{"id":99,"name":"โรงเรียนมีนบุรี","lat":13.8129968144925,"lng":100.731291970608},{"id":100,"name":"โรงเรียนวัดทองสัมฤทธิ์","lat":13.8009375800909,"lng":100.786733143479},{"id":101,"name":"โรงเรียนวัดบำเพ็ญเหนือ","lat":13.8000135867209,"lng":100.708345360736},{"id":102,"name":"โรงเรียนวัดแสนสุข","lat":13.8194848975259,"lng":100.741798732505},{"id":103,"name":"โรงเรียนวัดใหม่ลำนกแขวก","lat":13.8078523197739,"lng":100.807079232293},{"id":104,"name":"โรงเรียนศาลาคู้","lat":13.8452055830115,"lng":100.79554884993},{"id":105,"name":"โรงเรียนสุเหร่าบางชัน","lat":13.8040035466725,"lng":100.701915982036},{"id":106,"name":"โรงเรียนสุเหร่าทรายกองดิน","lat":13.8344255919717,"lng":100.773270406566},{"id":107,"name":"โรงเรียนวัดลาดกระบัง","lat":13.7269936604754,"lng":100.752415165189},{"id":108,"name":"โรงเรียนวัดปลูกศรัทธา","lat":13.727321837676,"lng":100.768269692966},{"id":109,"name":"โรงเรียนวัดสังฆราชา","lat":13.7263665938461,"lng":100.737729850722},{"id":110,"name":"โรงเรียนวัดบำรุงรื่น","lat":13.7426307635072,"lng":100.755787840586},{"id":111,"name":"โรงเรียนวัดพลมานีย์","lat":13.7230797888082,"lng":100.798086425479},{"id":112,"name":"โรงเรียนวัดสุทธาโภชน์","lat":13.7402499031244,"lng":100.795448094543},{"id":113,"name":"โรงเรียนแสงหิรัญวิทยา","lat":13.7127982761728,"lng":100.812967967642},{"id":114,"name":"โรงเรียนบ้านทับยาว(ประสานสามัคคี)","lat":13.7318374448025,"lng":100.837768177939},{"id":115,"name":"โรงเรียนวัดบึงบัว","lat":13.7651863476631,"lng":100.776658222931},{"id":116,"name":"โรงเรียนวัดทิพพาวาส","lat":13.7804721543995,"lng":100.801386827425},{"id":117,"name":"โรงเรียนลำพะอง","lat":13.7733040829254,"lng":100.812311453699},{"id":118,"name":"โรงเรียนวัดราชโกษา","lat":13.6996214598416,"lng":100.851230663622},{"id":119,"name":"โรงเรียนวัดขุมทอง","lat":13.7220674970609,"lng":100.851504773372},{"id":120,"name":"โรงเรียนตำบลขุมทอง(ประชาอุทิศ)","lat":13.7548504971878,"lng":100.857127870142},{"id":121,"name":"โรงเรียนเพชรทองคำอุปถัมภ์ (ขุมทอง)","lat":13.7416496634382,"lng":100.85271099604},{"id":122,"name":"โรงเรียนวัดลานบุญ","lat":13.7254454277071,"lng":100.720040753984},{"id":123,"name":"โรงเรียนวัดปากบึง","lat":13.7768417027749,"lng":100.738143643036},{"id":124,"name":"โรงเรียนสุเหร่าลำนายโส","lat":13.7754626471404,"lng":100.724353255594},{"id":125,"name":"โรงเรียนแดงเป้า(สิงสุขบูรณะ)","lat":13.7482390454241,"lng":100.724346620347},{"id":126,"name":"โรงเรียนเคหะชุมชนลาดกระบัง","lat":13.7657275737891,"lng":100.730415628411},{"id":127,"name":"โรงเรียนวัดดอกไม้","lat":13.6831239143223,"lng":100.526032102495},{"id":128,"name":"โรงเรียนวัดช่องลม","lat":13.7044156086935,"lng":100.545949509416},{"id":129,"name":"โรงเรียนวัดช่องนนทรี","lat":13.6936793608647,"lng":100.544639672063},{"id":130,"name":"โรงเรียนวัดปริวาศ","lat":13.6730866217855,"lng":100.533328789343},{"id":131,"name":"โรงเรียนวัดคลองใหม่","lat":13.6779857515167,"lng":100.543858113074},{"id":132,"name":"โรงเรียนวัดคลองภูมิ","lat":13.6807732644535,"lng":100.548688181284},{"id":133,"name":"โรงเรียนวัดจักรวรรดิ์","lat":13.7426653109378,"lng":100.503674562389},{"id":134,"name":"โรงเรียนวัดปทุมคงคา","lat":13.7370096960363,"lng":100.510871667491},{"id":135,"name":"โรงเรียนวัดสัมพันธวงค์","lat":13.7383642201617,"lng":100.509521577977},{"id":136,"name":"โรงเรียนวัดไผ่ตัน","lat":13.7962892304203,"lng":100.548289292003},{"id":137,"name":"โรงเรียนวัดประยุรวงค์","lat":13.7370863045534,"lng":100.494596649743},{"id":138,"name":"โรงเรียนวัดขุนจันทร์","lat":13.719846993817,"lng":100.470928273484},{"id":139,"name":"โรงเรียนวัดบุคคโล","lat":13.7003749456849,"lng":100.488341380959},{"id":140,"name":"โรงเรียนวัดดาวคนอง","lat":13.6963282574329,"lng":100.488152655909},{"id":141,"name":"โรงเรียนวัดกัลยาณมิตร","lat":13.7406483745341,"lng":100.490844921623},{"id":142,"name":"โรงเรียนวัดราชคฤห์","lat":13.7227075485817,"lng":100.480061974741},{"id":143,"name":"โรงเรียนวัดประดิษฐาราม","lat":13.7343928725196,"lng":100.487518589122},{"id":144,"name":"โรงเรียนวัดบางสะแกใน","lat":13.7115530168369,"lng":100.475485863447},{"id":145,"name":"โรงเรียนวัดเวฬุราชิณ","lat":13.7262440209106,"lng":100.486008342825},{"id":146,"name":"โรงเรียนกันตทาราราม","lat":13.7176477338128,"lng":100.478353823942},{"id":147,"name":"โรงเรียนวัดโพธินิมิตร","lat":13.7207553213232,"lng":100.484718508688},{"id":148,"name":"โรงเรียนวัดใหม่ยายนุ้ย","lat":13.7120237869252,"lng":100.469038050926},{"id":149,"name":"โรงเรียนวัดกระจับพินิจ","lat":13.714881536514,"lng":100.485907835313},{"id":150,"name":"โรงเรียนวัดราชวรินทร์","lat":13.7091704064117,"lng":100.492598523919},{"id":151,"name":"โรงเรียนวัดบางสะแกนอก","lat":13.7158216236904,"lng":100.475513118486},{"id":152,"name":"โรงเรียนวัดใหญ่ศรีสุพรรณ","lat":13.7290147642647,"lng":100.488586521165},{"id":153,"name":"โรงเรียนวัดบางน้ำชน","lat":13.7040946320578,"lng":100.490703853612},{"id":154,"name":"โรงเรียนวัดราชสิทธาราม","lat":13.7357937603214,"lng":100.485023533418},{"id":155,"name":"โรงเรียนวัดท่าพระ","lat":13.733476294717,"lng":100.472811859091},{"id":156,"name":"โรงเรียนวัดประดู่ฉิมพลี","lat":13.7241141715277,"lng":100.46911353435},{"id":157,"name":"โรงเรียนวัดใหม่พิเรนทร์","lat":13.7411726419811,"lng":100.482268614939},{"id":158,"name":"โรงเรียนวัดดีดวด","lat":13.7412335879098,"lng":100.474828960089},{"id":159,"name":"โรงเรียนวัดนาคกลาง","lat":13.7459224436412,"lng":100.484019922946},{"id":160,"name":"โรงเรียนประชาราษฎร์บำเพ็ญ","lat":13.7757761567694,"lng":100.583640934584},{"id":161,"name":"โรงเรียนพระราม ๙ กาญจนาภิเษก","lat":13.7595389063366,"lng":100.59307341294},{"id":162,"name":"โรงเรียนวัดใหม่ช่องลม","lat":13.7491454395511,"lng":100.571723803892},{"id":163,"name":"โรงเรียนวัดเศวตฉัตร","lat":13.7131209151764,"lng":100.506056051172},{"id":164,"name":"โรงเรียนวัดสุทธาราม","lat":13.7131085757496,"lng":100.493422276367},{"id":165,"name":"โรงเรียนวัดทองเพลง","lat":13.7244692397729,"lng":100.500712470747},{"id":166,"name":"โรงเรียนวัดทองธรรมชาติ","lat":13.7340192440779,"lng":100.506444559914},{"id":167,"name":"โรงเรียนวัดทองนพคุณ","lat":13.7331237784392,"lng":100.508361447391},{"id":168,"name":"โรงเรียนวัดพิชัยญาติ","lat":13.7327454496258,"lng":100.497192567765},{"id":169,"name":"โรงเรียนวัดสุวรรณ","lat":13.7241989980514,"lng":100.510497504126},{"id":170,"name":"โรงเรียนวัดไก่เตี้ย","lat":13.7849409177332,"lng":100.465464420162},{"id":171,"name":"โรงเรียนวัดชัยพฤกษมาลา","lat":13.7942296433604,"lng":100.467218252506},{"id":172,"name":"โรงเรียนชุมทางตลิ่งชัน","lat":13.7957170552687,"lng":100.43765112023},{"id":173,"name":"โรงเรียนฉิมพลี","lat":13.7911246941429,"lng":100.412987474859},{"id":174,"name":"โรงเรียนวัดทอง","lat":13.7743465073299,"lng":100.442177445684},{"id":175,"name":"โรงเรียนวัดมะกอก","lat":13.7755370301788,"lng":100.428057097915},{"id":176,"name":"โรงเรียนวัดโพธิ์","lat":13.7693898013553,"lng":100.426718281261},{"id":177,"name":"โรงเรียนวัดอินทราวาส","lat":13.7592136472507,"lng":100.433253041689},{"id":178,"name":"โรงเรียนวัดปากน้ำฝั่งเหนือ","lat":13.7440198017015,"lng":100.459068065312},{"id":179,"name":"โรงเรียนวัดประสาท","lat":13.7582254033549,"lng":100.449468727774},{"id":180,"name":"โรงเรียนวัดเกาะ","lat":13.7426164027541,"lng":100.45620851009},{"id":181,"name":"โรงเรียนวัดพิกุล","lat":13.7414009220399,"lng":100.432915501876},{"id":182,"name":"โรงเรียนวัดกระโจมทอง","lat":13.7477026829639,"lng":100.442983411416},{"id":183,"name":"โรงเรียนวัดรัชฎาธิฐาน","lat":13.7590500354882,"lng":100.453596406386},{"id":184,"name":"โรงเรียนวัดตลิ่งชัน","lat":13.7790236215486,"lng":100.456848784669},{"id":185,"name":"โรงเรียนวัดช่างเหล็ก","lat":13.7741387582123,"lng":100.453467932645},{"id":186,"name":"โรงเรียนวัดบางขุนนนท์","lat":13.7670607032003,"lng":100.469000836932},{"id":187,"name":"โรงเรียนวัดวิเศษการ","lat":13.7569321789519,"lng":100.482441647357},{"id":188,"name":"โรงเรียนวัดเจ้าอาม","lat":13.7757957278902,"lng":100.464864700078},{"id":189,"name":"โรงเรียนวัดโพธิ์เรียง","lat":13.7443359678045,"lng":100.471882953824},{"id":190,"name":"โรงเรียนวัดยางสุทธาราม","lat":13.7539331868751,"lng":100.474031519119},{"id":191,"name":"โรงเรียนวัดศรีสุดาราม","lat":13.7668126681501,"lng":100.472539308306},{"id":192,"name":"โรงเรียนวัดบางเสาธง","lat":13.7431820001674,"lng":100.467496891721},{"id":193,"name":"โรงเรียนวัดสุวรรณาราม","lat":13.7621123849839,"lng":100.477666962042},{"id":194,"name":"โรงเรียนวัดพระยาทำ","lat":13.7483726747354,"lng":100.483437186647},{"id":195,"name":"โรงเรียนวัดมะลิ","lat":13.7622222184324,"lng":100.460561511714},{"id":196,"name":"โรงเรียนวัดดงมูลเหล็ก","lat":13.7514422538003,"lng":100.475398494529},{"id":197,"name":"โรงเรียนวัดอัมพวา","lat":13.7486113178733,"lng":100.475715639112},{"id":198,"name":"โรงเรียนวัดสุวรรณคีรี","lat":13.7808268011437,"lng":100.468156283409},{"id":199,"name":"โรงเรียนวัดดุสิตาราม","lat":13.7640496889188,"lng":100.487200769869},{"id":200,"name":"โรงเรียนวัดปฐมบุตรอิศราราม","lat":13.7732826814526,"lng":100.476694485881},{"id":201,"name":"โรงเรียนหมู่บ้านเกาะโพธิ์","lat":13.5780877627813,"lng":100.390023105863},{"id":202,"name":"โรงเรียนวัดหัวกระบือ","lat":13.6199214539658,"lng":100.449384272373},{"id":203,"name":"โรงเรียนคลองห้วยทราย","lat":13.6411393995319,"lng":100.435752749447},{"id":204,"name":"โรงเรียนวัดสะแกงาม","lat":13.6338174129498,"lng":100.419371898876},{"id":205,"name":"โรงเรียนวัดแสมดำ","lat":13.5908961934271,"lng":100.386213426574},{"id":206,"name":"โรงเรียนแก้วขำทับอุปถัมภ์","lat":13.5932687300896,"lng":100.44925803357},{"id":207,"name":"โรงเรียนคลองพิทยาลงกรณ์","lat":13.527672706277,"lng":100.420278275069},{"id":208,"name":"โรงเรียนวัดบางกระดี่","lat":13.59913619068,"lng":100.405021644298},{"id":209,"name":"โรงเรียนวัดกำแพง","lat":13.6789803203888,"lng":100.446378830423},{"id":210,"name":"โรงเรียนศาลเจ้า (ห้าวนุกูลวิทยา)","lat":13.6640596903197,"lng":100.427102768108},{"id":211,"name":"โรงเรียนวัดท่าข้าม","lat":13.652223430506,"lng":100.447295020385},{"id":212,"name":"โรงเรียนวัดบัวผัน","lat":13.6121796372961,"lng":100.476833447728},{"id":213,"name":"โรงเรียนวัดกก","lat":13.6737058410496,"lng":100.449339157056},{"id":214,"name":"โรงเรียนวัดประชาบำรุง","lat":13.5693672653319,"lng":100.441134763982},{"id":215,"name":"โรงเรียนวัดเลา","lat":13.6661157403295,"lng":100.447284580726},{"id":216,"name":"โรงเรียนบางขุนเทียนศึกษา","lat":13.6470448243334,"lng":100.424812250439},{"id":217,"name":"โรงเรียนวัดนิมมานรดี","lat":13.7093305053738,"lng":100.42679020159},{"id":218,"name":"โรงเรียนวัดจันทร์ประดิษฐาราม","lat":13.7210529291806,"lng":100.440374102035},{"id":219,"name":"โรงเรียนวัดอ่างแก้ว (จีบ ปานขำ)","lat":13.7161891861416,"lng":100.453148724039},{"id":220,"name":"โรงเรียนวัดไชยฉิมพลี","lat":13.7342196642637,"lng":100.43333659206},{"id":221,"name":"โรงเรียนวัดโคนอน","lat":13.7128286120886,"lng":100.454366948782},{"id":222,"name":"โรงเรียนวัดมะพร้าวเตี้ย","lat":13.7439537308363,"lng":100.420248345754},{"id":223,"name":"โรงเรียนวัดโตนด","lat":13.7362996693479,"lng":100.452853833807},{"id":224,"name":"โรงเรียนวัดตะล่อม","lat":13.7414203666973,"lng":100.428612607623},{"id":225,"name":"โรงเรียนวัดกำแพง","lat":13.7393721685717,"lng":100.445741629551},{"id":226,"name":"โรงเรียนวัดทองศาลางาม","lat":13.7286204596117,"lng":100.463951130061},{"id":227,"name":"โรงเรียนวัดวิจิตรการนิมิตร","lat":13.7399258084108,"lng":100.460209388987},{"id":228,"name":"โรงเรียนวัดประดู่ (พ่วงอุทิศ)","lat":13.7223289209436,"lng":100.456710577955},{"id":229,"name":"โรงเรียนบางจาก","lat":13.7268880420904,"lng":100.446485984118},{"id":230,"name":"โรงเรียนวัดหนองแขม","lat":13.6769775435558,"lng":100.339434709466},{"id":231,"name":"โรงเรียนวัดอุดมรังสี","lat":13.7040418463361,"lng":100.34910735687},{"id":232,"name":"โรงเรียนประชาบำรุง","lat":13.6867989775476,"lng":100.363770533454},{"id":233,"name":"โรงเรียนบ้านขุนประเทศ","lat":13.7218954470714,"lng":100.343048367641},{"id":234,"name":"โรงเรียนคลองบางแวก","lat":13.7261722913334,"lng":100.359456268514},{"id":235,"name":"โรงเรียนวัดศรีนวลธรรมวิมล","lat":13.6569876936506,"lng":100.343878825642},{"id":236,"name":"โรงเรียนวัดบางปะกอก","lat":13.6820968443896,"lng":100.4954513157},{"id":237,"name":"โรงเรียนรัตนจีนะอุทิศ","lat":13.6693263333624,"lng":100.492075606637},{"id":238,"name":"โรงเรียนวัดประเสริฐสุทธาวาส","lat":13.6800809892793,"lng":100.503596952197},{"id":239,"name":"โรงเรียนวัดแจงร้อน","lat":13.6752950009358,"lng":100.519857665697},{"id":240,"name":"โรงเรียนวัดสน","lat":13.6723950343926,"lng":100.513344728631},{"id":241,"name":"โรงเรียนวัดสารอด","lat":13.6735290318284,"lng":100.502979575042},{"id":242,"name":"โรงเรียนวัดอาวุธวิกสิตาราม","lat":13.7903530137786,"lng":100.506296482344},{"id":243,"name":"โรงเรียนวัดศิริไอยสวรรค์","lat":13.7690198119551,"lng":100.493218697638},{"id":244,"name":"โรงเรียนวัดเปาโรหิตย์","lat":13.7801711941581,"lng":100.495124387483},{"id":245,"name":"โรงเรียนวัดเทพากร","lat":13.7864939781896,"lng":100.502629771379},{"id":246,"name":"โรงเรียนวัดฉัตรแก้วจงกลณี","lat":13.8018780962731,"lng":100.513526805699},{"id":247,"name":"โรงเรียนวัดวิมุตยาราม","lat":13.810868642874,"lng":100.514652014299},{"id":248,"name":"โรงเรียนวัดบางพลัด","lat":13.7925947473398,"lng":100.498455560762},{"id":249,"name":"โรงเรียนวัดคฤหบดี","lat":13.7723557785879,"lng":100.496711999933},{"id":250,"name":"โรงเรียนวัดรวก","lat":13.7813110445332,"lng":100.484429715854},{"id":251,"name":"โรงเรียนวัดสามัคคีสุทธาวาส","lat":13.7973945313375,"lng":100.502290843957},{"id":252,"name":"โรงเรียนบางยี่ขันวิทยาคม","lat":13.7755214628992,"lng":100.490497806157},{"id":253,"name":"โรงเรียนสามเสนนอก","lat":13.7778590743183,"lng":100.569539708394},{"id":254,"name":"โรงเรียนวิชูทิศ","lat":13.7680846525231,"lng":100.556345120966},{"id":255,"name":"โรงเรียนวิชากร","lat":13.7679712189606,"lng":100.555220532326},{"id":256,"name":"โรงเรียนวัดบางเตย","lat":13.8033808650606,"lng":100.649181904645},{"id":257,"name":"โรงเรียนประภาสวิทยา","lat":13.8041744196082,"lng":100.66227430944},{"id":258,"name":"โรงเรียนคลองลำเจียก","lat":13.8183638484076,"lng":100.634593518379},{"id":259,"name":"โรงเรียนวัดนวลจันทร์","lat":13.8183469576186,"lng":100.627068510804},{"id":260,"name":"โรงเรียนวัดพิชัย","lat":13.7730293046761,"lng":100.658580171981},{"id":261,"name":"โรงเรียนคลองกุ่ม","lat":13.7859403079977,"lng":100.673738076114},{"id":262,"name":"โรงเรียนพิชัยพัฒนา","lat":13.7733287546105,"lng":100.656503823152},{"id":263,"name":"โรงเรียนแย้มจาดวิชชานุสรณ์","lat":13.8326022331552,"lng":100.652445722358},{"id":264,"name":"โรงเรียนวัดดอน","lat":13.7137909260748,"lng":100.516940006372},{"id":265,"name":"โรงเรียนวัดยานนาวา","lat":13.7177109343239,"lng":100.512830249215},{"id":266,"name":"โรงเรียนวัดประดู่ธรรมาธิปัตย์","lat":13.8012686105963,"lng":100.523715029411},{"id":267,"name":"โรงเรียนวัดบางโพโอมาวาส","lat":13.8088566284314,"lng":100.51971705386},{"id":268,"name":"โรงเรียนวัดสร้อยทอง","lat":13.8134523552179,"lng":100.517687297821},{"id":269,"name":"โรงเรียนวัดทองสุทธาราม","lat":13.8328626762935,"lng":100.529806540033},{"id":270,"name":"โรงเรียนวัดมัชฌันติการาม","lat":13.822072761354,"lng":100.517283790372},{"id":271,"name":"โรงเรียนวัดเลียบราษฎร์บำรุง","lat":13.8287261297101,"lng":100.521282600564},{"id":272,"name":"โรงเรียนวัดประชาศรัทธาธรรม","lat":13.8185058701964,"lng":100.519150741132},{"id":273,"name":"โรงเรียนวัดเสมียนนารี","lat":13.8404235854545,"lng":100.556279104618},{"id":274,"name":"โรงเรียนวัดเทวสุนทร","lat":13.8538904488814,"lng":100.56204875896},{"id":275,"name":"โรงเรียนบ้านลาดพร้าว","lat":13.8045680041221,"lng":100.587811039862},{"id":276,"name":"โรงเรียนรัตนโกสินทร์สมโภช","lat":13.8469161433931,"lng":100.54860204113},{"id":277,"name":"โรงเรียนเสนานิคม","lat":13.8317499048592,"lng":100.5883608842},{"id":278,"name":"โรงเรียนประชานิเวศน์(ประถมศึกษา)","lat":13.8437128625008,"lng":100.546553444107},{"id":279,"name":"โรงเรียนประชานิเวศน์(มัธยมศึกษา)","lat":13.8437147188094,"lng":100.546555368583},{"id":280,"name":"โรงเรียนวัดไผ่เงินโชตนาราม","lat":13.7012727069937,"lng":100.523468574918},{"id":281,"name":"โรงเรียนวัดราชสิงขร","lat":13.7059400445231,"lng":100.50416875216},{"id":282,"name":"โรงเรียนวัดลาดบัวขาว","lat":13.7007895352503,"lng":100.497165005925},{"id":283,"name":"โรงเรียนวัดไทร","lat":13.6902355784483,"lng":100.518180125185},{"id":284,"name":"โรงเรียนวัดจันทร์นอก","lat":13.6901252604736,"lng":100.501556355755},{"id":285,"name":"โรงเรียนวัดบางโคล่นอก","lat":13.6872951784178,"lng":100.512033188538},{"id":286,"name":"โรงเรียนวัดจันทร์ใน","lat":13.6953007204926,"lng":100.50388235033},{"id":287,"name":"โรงเรียนวัดตะกล่ำ","lat":13.6766538520114,"lng":100.664973622451},{"id":288,"name":"โรงเรียนแก่นทองอุปถัมภ์","lat":13.6962360845065,"lng":100.651373327062},{"id":289,"name":"โรงเรียนวัดกระทุ่มเสือปลา","lat":13.7226816858238,"lng":100.688784826773},{"id":290,"name":"โรงเรียนคลองมะขามเทศ","lat":13.6973948930363,"lng":100.676137306422},{"id":291,"name":"โรงเรียนสุเหร่าจรเข้ขบ","lat":13.7071097358987,"lng":100.692495680532},{"id":292,"name":"โรงเรียนสุเหร่าทางควาย","lat":13.7245153477643,"lng":100.673523649232},{"id":293,"name":"โรงเรียนสุเหร่าทับช้าง","lat":13.733541072013,"lng":100.688874098769},{"id":294,"name":"โรงเรียนสุเหร่าบึงหนองบอน","lat":13.7136502976055,"lng":100.651586851406},{"id":295,"name":"โรงเรียนสุเหร่าศาลาลอย","lat":13.7105102348107,"lng":100.667938610195},{"id":296,"name":"โรงเรียนสุเหร่าบ้านม้า","lat":13.7357047692206,"lng":100.670981925949},{"id":297,"name":"โรงเรียนคลองปักหลัก","lat":13.6810053871317,"lng":100.698355572045},{"id":298,"name":"โรงเรียนงามมานะ","lat":13.7196132029159,"lng":100.661702470505},{"id":299,"name":"โรงเรียนคชเผือกอนุสรณ์","lat":13.6925188823318,"lng":100.680076676698},{"id":300,"name":"โรงเรียนสุวิทย์เสรีอนุสรณ์","lat":13.7092863775258,"lng":100.661932815173},{"id":301,"name":"โรงเรียนอยู่เป็นสุขอนุสรณ์","lat":13.6912281973244,"lng":100.638354350776},{"id":302,"name":"โรงเรียนสุวิทย์เสรีอนุสรณ์ (มัธยมศึกษา)","lat":13.7092051654765,"lng":100.66204231869},{"id":303,"name":"โรงเรียนวัดสะพาน","lat":13.704109130756,"lng":100.588477746818},{"id":304,"name":"โรงเรียนวัดคลองเตย","lat":13.7101158454687,"lng":100.56075051739},{"id":305,"name":"โรงเรียนศูนย์รวมน้ำใจ","lat":13.7130344181273,"lng":100.569636905163},{"id":306,"name":"โรงเรียนชุมชนหมู่บ้านพัฒนา","lat":13.7110395054875,"lng":100.574629799749},{"id":307,"name":"โรงเรียนวัดใต้","lat":13.7131048668073,"lng":100.60384516511},{"id":308,"name":"โรงเรียนนาคนาวาอุปถัมภ์","lat":13.7307417424224,"lng":100.613185751256},{"id":309,"name":"โรงเรียนวัดปากบ่อ","lat":13.7137636112825,"lng":100.630604229927},{"id":310,"name":"โรงเรียนสุเหร่าใหม่","lat":13.7163320941668,"lng":100.639256163687},{"id":311,"name":"โรงเรียนหัวหมาก","lat":13.7376470270876,"lng":100.643514808339},{"id":312,"name":"โรงเรียนคลองกลันตัน","lat":13.7331827133571,"lng":100.640462230852},{"id":313,"name":"โรงเรียนวัดทองใน","lat":13.7120328835711,"lng":100.622489874396},{"id":314,"name":"โรงเรียนนาคนาวาอุปถัมภ์ (มัธยมศึกษา)","lat":13.7315215824222,"lng":100.613031584065},{"id":315,"name":"โรงเรียนวัดมงคลวราราม","lat":13.6957271093667,"lng":100.479980027777},{"id":316,"name":"โรงเรียนวัดนางนอง","lat":13.7031682970693,"lng":100.466838017491},{"id":317,"name":"โรงเรียนวัดศาลาครืน","lat":13.7063798664388,"lng":100.460651912253},{"id":318,"name":"โรงเรียนวัดโพธิ์ทอง","lat":13.6684070753539,"lng":100.477653288752},{"id":319,"name":"โรงเรียนวัดสีสุก","lat":13.6789519065298,"lng":100.464136596128},{"id":320,"name":"โรงเรียนวัดบางประทุนนอก","lat":13.6948552478157,"lng":100.459000731743},{"id":321,"name":"โรงเรียนวัดโพธิ์แก้ว","lat":13.6836144019018,"lng":100.487811502868},{"id":322,"name":"โรงเรียนวัดนาคนิมิตร","lat":13.6882181853894,"lng":100.47952005942},{"id":323,"name":"โรงเรียนวัดบางขุนเทียนนอก","lat":13.6967893567452,"lng":100.465167621641},{"id":324,"name":"โรงเรียนวัดยายร่ม","lat":13.6746131869382,"lng":100.46466005106},{"id":325,"name":"โรงเรียนวัดไทร","lat":13.6910341090171,"lng":100.455661617105},{"id":326,"name":"โรงเรียนวัดดอนเมือง (ทหารอากาศอุทิศ)","lat":13.9214919073679,"lng":100.601093233261},{"id":327,"name":"โรงเรียนพหลโยธิน","lat":13.9495166692319,"lng":100.615448988093},{"id":328,"name":"โรงเรียนวัดเวฬุวนาราม","lat":13.9145952370288,"lng":100.566082542334},{"id":329,"name":"โรงเรียนประชาอุทิศ (จันทานอนุสรณ์)","lat":13.9229815960919,"lng":100.583934081151},{"id":330,"name":"โรงเรียนเปรมประชา","lat":13.9477025344989,"lng":100.606049628146},{"id":331,"name":"โรงเรียนบำรุงรวิวรรณวิทยา (ทุ่งสีกัน)","lat":13.938326577113,"lng":100.58287775551},{"id":332,"name":"โรงเรียนกิ่งเพชร","lat":13.7515330153642,"lng":100.52630585956},{"id":333,"name":"โรงเรียนวัดดิสหงสาราม","lat":13.7487212214963,"lng":100.551785350718},{"id":334,"name":"โรงเรียนวัดพระยายัง","lat":13.7523321977475,"lng":100.521961268555},{"id":335,"name":"โรงเรียนวัดทัศนารุณสุนทริการาม","lat":13.7610322577185,"lng":100.543517880986},{"id":336,"name":"โรงเรียนลอยสายอนุสรณ์","lat":13.8403222177468,"lng":100.632437400233},{"id":337,"name":"โรงเรียนวัดลาดพร้าว","lat":13.803151328643,"lng":100.590242728831},{"id":338,"name":"โรงเรียนเทพวิทยา","lat":13.8322177312824,"lng":100.590926994392},{"id":339,"name":"โรงเรียนวัดลาดปลาเค้า","lat":13.8473865605083,"lng":100.60402031113},{"id":340,"name":"โรงเรียนเพชรถนอม (คลองเสือน้อย)","lat":13.8228948443492,"lng":100.615754157286},{"id":341,"name":"โรงเรียนคลองทรงกระเทียม","lat":13.8003196537524,"lng":100.612810484189},{"id":342,"name":"โรงเรียนวัดธาตุทอง","lat":13.7196572051257,"lng":100.586653056286},{"id":343,"name":"โรงเรียนวิจิตรวิทยา","lat":13.7401990453863,"lng":100.593724770291},{"id":344,"name":"โรงเรียนสุเหร่าบ้านดอน","lat":13.7431516042323,"lng":100.5802374207},{"id":345,"name":"โรงเรียนสุเหร่าบางมะเขือ","lat":13.7154034639801,"lng":100.596927774965},{"id":346,"name":"โรงเรียนสุเหร่าสามอิน","lat":13.7279140255245,"lng":100.596200030364},{"id":347,"name":"โรงเรียนวัดภาษี","lat":13.7417111548745,"lng":100.588729200436},{"id":348,"name":"โรงเรียนแจ่มจันทร์","lat":13.739170604873,"lng":100.587719710996},{"id":349,"name":"โรงเรียนสวัสดีวิทยา","lat":13.7398012574439,"lng":100.566280916654},{"id":350,"name":"โรงเรียนบางแค (เนื่องสังวาลย์)","lat":13.7072841457837,"lng":100.40048034112},{"id":351,"name":"โรงเรียนวัดบุณยประดิษฐ์","lat":13.7303963999105,"lng":100.388713193551},{"id":352,"name":"โรงเรียนคลองหนองใหญ่","lat":13.6897882367022,"lng":100.417509296895},{"id":353,"name":"โรงเรียนเพชรเกษม","lat":13.7044496433225,"lng":100.384652206029},{"id":354,"name":"โรงเรียนวัดศาลาแดง","lat":13.7493295745612,"lng":100.354589540458},{"id":355,"name":"โรงเรียนวัดบางไผ่","lat":13.740709810818,"lng":100.403610156103},{"id":356,"name":"โรงเรียนบางเชือกหนัง","lat":13.751371941048,"lng":100.389716000886},{"id":357,"name":"โรงเรียนวัดพรหมสุวรรณสามัคคี","lat":13.7296617516596,"lng":100.367687640474},{"id":358,"name":"โรงเรียนบางแคเหนือ","lat":13.711516821281,"lng":100.413216626435},{"id":359,"name":"โรงเรียนวัดม่วง","lat":13.693595730363,"lng":100.393029905147},{"id":360,"name":"โรงเรียนวัดราษฎร์บำรุง","lat":13.7014597221617,"lng":100.379537998457},{"id":361,"name":"โรงเรียนหมู่บ้านเศรษฐกิจ","lat":13.7153366914575,"lng":100.374646749835},{"id":362,"name":"โรงเรียนวัดหลักสี่ (ทองใบ ทิวารี)","lat":13.8892330491158,"lng":100.582493291894},{"id":363,"name":"โรงเรียนทุ่งสองห้อง","lat":13.8853393245667,"lng":100.56042205197},{"id":364,"name":"โรงเรียนเคหะทุ่งสองห้องวิทยา","lat":13.9009974594117,"lng":100.583211257398},{"id":365,"name":"โรงเรียนเคหะทุ่งสองห้องวิทยา 2","lat":13.9022826457681,"lng":100.578595793993},{"id":366,"name":"โรงเรียนการเคหะท่าทราย","lat":13.8734111635999,"lng":100.553291300131},{"id":367,"name":"โรงเรียนบางเขน (ไว้สาลีอนุสรณ์)","lat":13.8608220981526,"lng":100.567125169797},{"id":368,"name":"โรงเรียนสายไหม","lat":13.9295384956364,"lng":100.659715806043},{"id":369,"name":"โรงเรียนวัดเกาะสุวรรณาราม","lat":13.9081296717675,"lng":100.633872139643},{"id":370,"name":"โรงเรียนออเงิน","lat":13.9039421905035,"lng":100.664958966469},{"id":371,"name":"โรงเรียนวัดหนองใหญ่","lat":13.9184184150263,"lng":100.686472081998},{"id":372,"name":"โรงเรียนฤทธิยะวรรณาลัย","lat":13.9137102083764,"lng":100.625047245509},{"id":373,"name":"โรงเรียนประชานุกูล","lat":13.9189698476976,"lng":100.636003097038},{"id":374,"name":"โรงเรียนพรพระร่วงประสิทธิ์","lat":13.8850752142786,"lng":100.662160463041},{"id":375,"name":"โรงเรียนวัดราษฎร์นิยมธรรม","lat":13.885938322458,"lng":100.62496586731},{"id":376,"name":"โรงเรียนซอยแอนเนกซ์ (กาญจนาภิเษก 2)","lat":13.9354178963092,"lng":100.638786395259},{"id":377,"name":"โรงเรียนจินดาบำรุง","lat":13.848529475387,"lng":100.659608140892},{"id":378,"name":"โรงเรียนคันนายาว","lat":13.7932174333381,"lng":100.694836876104},{"id":379,"name":"โรงเรียนสุเหร่าทับช้างคลองบน","lat":13.7436494774252,"lng":100.699626603061},{"id":380,"name":"โรงเรียนวัดลาดบัวขาว","lat":13.7583471600428,"lng":100.696525660292},{"id":381,"name":"โรงเรียนสมโภชกรุงอนุสรณ์ (200 ปี)","lat":13.7403079438927,"lng":100.692284228668},{"id":382,"name":"โรงเรียนสุเหร่าซีรอ","lat":13.7691557836464,"lng":100.69485094814},{"id":383,"name":"โรงเรียนสุเหร่าลาดบัวขาว","lat":13.7698743431749,"lng":100.713480326952},{"id":384,"name":"โรงเรียนสามแยกคลองหลอแหล","lat":13.7803466851436,"lng":100.701673458237},{"id":385,"name":"โรงเรียนสุเหร่าลาดพร้าว","lat":13.7715737613875,"lng":100.594132438765},{"id":386,"name":"โรงเรียนสุเหร่าดอนสะแก","lat":13.7807657663439,"lng":100.612605315852},{"id":387,"name":"โรงเรียนวัดสามัคคีธรรม","lat":13.7841892279778,"lng":100.599949601916},{"id":388,"name":"โรงเรียนกลางคลองสอง","lat":13.8620029590935,"lng":100.699173949425},{"id":389,"name":"โรงเรียนบางชัน","lat":13.8178844799577,"lng":100.697711386205},{"id":390,"name":"โรงเรียนบ้านแบนชะโด","lat":13.8764835501898,"lng":100.783540941557},{"id":391,"name":"โรงเรียนบ้านหนองระแหง(ชมแสงประชานุกูล)","lat":13.9013106679589,"lng":100.690674860902},{"id":392,"name":"โรงเรียนประชาราษฎร์อุปถัมภ์วิทยา","lat":13.8440619204256,"lng":100.69571846899},{"id":393,"name":"โรงเรียนวัดคู้บอน","lat":13.8542212109169,"lng":100.673211614354},{"id":394,"name":"โรงเรียนวัดบัวแก้ว","lat":13.8508208895188,"lng":100.731366862616},{"id":395,"name":"โรงเรียนวัดแป้นทอง","lat":13.8856458633471,"lng":100.708628503492},{"id":396,"name":"โรงเรียนวัดพระยาสุเรนทร์","lat":13.8739072121622,"lng":100.686357040028},{"id":397,"name":"โรงเรียนวัดลำกระดาน","lat":13.9174845564913,"lng":100.75331287134},{"id":398,"name":"โรงเรียนวัดศรีสุก","lat":13.9186279223604,"lng":100.791750042805},{"id":399,"name":"โรงเรียนวัดสุขใจ","lat":13.8718886755767,"lng":100.773788434184},{"id":400,"name":"โรงเรียนวัดสุทธิสะอาด","lat":13.8774657008156,"lng":100.732171877953},{"id":401,"name":"โรงเรียนสุเหร่าเกาะขุนเณร","lat":13.8553485008511,"lng":100.785950984252},{"id":402,"name":"โรงเรียนสุเหร่าคลองสี่","lat":13.9126615281523,"lng":100.770144734004},{"id":403,"name":"โรงเรียนสุเหร่าคลองหนึ่ง","lat":13.8424077448545,"lng":100.71054006408},{"id":404,"name":"โรงเรียนสุเหร่าสามวา","lat":13.9065047163904,"lng":100.728086908469},{"id":405,"name":"โรงเรียนสุเหร่าแสนแสบ","lat":13.8256395124246,"lng":100.751465949452},{"id":406,"name":"โรงเรียนวัดบางนาใน","lat":13.6711664200588,"lng":100.604187216261},{"id":407,"name":"โรงเรียนวัดบางนานอก","lat":13.6762441855307,"lng":100.587958412625},{"id":408,"name":"โรงเรียนผ่องพลอยอนุสรณ์","lat":13.6614276894873,"lng":100.629968156625},{"id":409,"name":"โรงเรียนรุ่งเรืองอุปถัมภ์","lat":13.677034365603,"lng":100.611573468706},{"id":410,"name":"โรงเรียนอำนวยกนกศิริอนุสรณ์","lat":13.6752672008208,"lng":100.619155513532},{"id":411,"name":"โรงเรียนศรีเอี่ยมอนุสรณ์","lat":13.6677478523814,"lng":100.643785866227},{"id":412,"name":"โรงเรียนเพี้ยนพินอนุสรณ์","lat":13.6644674514553,"lng":100.597904448447},{"id":413,"name":"โรงเรียนคลองต้นไทร","lat":13.7835032963635,"lng":100.383833311324},{"id":414,"name":"โรงเรียนคลองทวีวัฒนา","lat":13.7555625692867,"lng":100.351664653893},{"id":415,"name":"โรงเรียนคลองบางพรหม","lat":13.7686342355981,"lng":100.368625954428},{"id":416,"name":"โรงเรียนคลองมหาสวัสดิ์","lat":13.8026823263655,"lng":100.352360433798},{"id":417,"name":"โรงเรียนวัดปุรณาวาส","lat":13.8016850304193,"lng":100.335503520073},{"id":418,"name":"โรงเรียนตั้งพิรุฬธรรม","lat":13.7794244489415,"lng":100.344282709658},{"id":419,"name":"โรงเรียนชูสินทองประดิษฐ์อนุสรณ์","lat":13.657144347021,"lng":100.509549465053},{"id":420,"name":"โรงเรียนนาหลวง","lat":13.6476912737359,"lng":100.495049696213},{"id":421,"name":"โรงเรียนสามัคคีบำรุง","lat":13.6457149447768,"lng":100.511354383967},{"id":422,"name":"โรงเรียนบางมด(ตันเปาว์วิทยาคาร)","lat":13.6545019600048,"lng":100.47167051161},{"id":423,"name":"โรงเรียนราษฎร์บูรณะ","lat":13.6347801955028,"lng":100.503162839142},{"id":424,"name":"โรงเรียนรางราชพฤกษ์(นุชมีอุทิศ)","lat":13.6322643381099,"lng":100.482569295438},{"id":425,"name":"โรงเรียนวัดทุ่งครุ","lat":13.6192295076655,"lng":100.512006938038},{"id":426,"name":"โรงเรียนคลองรางจาก","lat":13.6357190755478,"lng":100.514756005472},{"id":427,"name":"โรงเรียนบ้านนายเหรียญ","lat":13.6688757130097,"lng":100.378039490745},{"id":428,"name":"โรงเรียนบ้านนายผล","lat":13.6432589979036,"lng":100.356387989593},{"id":429,"name":"โรงเรียนบ้านนายสี","lat":13.6637995761655,"lng":100.399041330163},{"id":430,"name":"โรงเรียนวัดบางบอน","lat":13.6420399572473,"lng":100.380012056848},{"id":431,"name":"โรงเรียนพรหมราษฎร์รังสรรค์","lat":13.6422156977932,"lng":100.395892494419},{"id":432,"name":"โรงเรียนสถานีพรมแดน","lat":13.6242139046992,"lng":100.38050044842},{"id":433,"name":"โรงเรียนวัดนินสุขาราม","lat":13.6742543887448,"lng":100.404645860182},{"id":434,"name":"โรงเรียนพระยามนธาตุราชศรีพิจิตร์","lat":13.6684616478718,"lng":100.425441242196},{"id":435,"name":"โรงเรียนคลองสอง","lat":13.8023929307094,"lng":100.888424556363}]}